,LONGITUDE,LATITUDE,ADDRESSBLOCKHOUSENUMBER,EST_ORIGINAL_COMPLETION_DATE,STATUS,LANDYADDRESSPOINT,PHOTOURL,DESCRIPTION,NAME,ADDRESSTYPE,HUP_COMPLETION_DATE,LANDXADDRESSPOINT,ADDRESSSTREETNAME,ADDRESSPOSTALCODE,ADDRESS_MYENV,INC_CRC,FMEL_UPD_D,APPROXIMATE_GFA,AWARDED_DATE,ADDRESSBUILDINGNAME,IMPLEMENTATION_DATE,CLEANINGSTARTDATE,INFO_ON_CO_LOCATORS,CLEANINGENDDATE,RNR_STATUS
0,103.938732580554,1.33198706861747,85,30/6/1977,Existing,34910.13,http://www.nea.gov.sg/images/default-source/Hawker-Centres-Division/resize_1267853253145.jpg,HUP Standard Upgrading,Bedok North Street 4 Blk 85 (85 Fengshan Centre),I,20/12/2012,39731.49,Bedok North Street 4,460085,"Blk 85, Bedok North Street 4, Singapore 460085",CFC780A1B5DC7721,20210330151704,,,,,,,,
1,103.818338919994,1.28733076703987,85,4/4/1972,Existing,29972.02,http://www.nea.gov.sg/images/default-source/Hawker-Centres-Division/resize_1262153717849.jpg,HUP Reconfiguration,Redhill Lane Blk 85 (Redhill Food Centre),I,17/6/2005,26332.89,Redhill Lane,150085,"Blk 85, Redhill Lane, Singapore 150085",1D515CA502CE0A60,20210330151704,,,,,,,,
2,103.828994204342,1.37238494002145,590,1974,Existing,39376.87,http://www.nea.gov.sg/images/default-source/Hawker-Centres-Division/resize_1262155861677.jpg,HUP Standard Upgrading,Sembawang Hills Food Centre (Jalan Leban Food Centre),I,26/2/2003,27518.75,Upper Thomson Road,574419,"590, Upper Thomson Road, Singapore 574419",6CC207917DD43B91,20210330151704,884.38,,,,,,,
3,103.866737484646,1.3631571201113,49A,1957,Existing,38356.53,http://www.nea.gov.sg/images/default-source/Hawker-Centres-Division/resize_1262156095817.jpg,HUP Rebuilding,Serangoon Garden Market,I,26/9/2002,31719.13,Serangoon Garden Way,555945,"49A, Serangoon Garden Way, Singapore 555945",F3EA4B58784B2F78,20210330151704,2448.2,,,,,,,
4,103.837031803823,1.35200744198417,320,25/5/2000,Existing,37123.63,http://www.nea.gov.sg/images/default-source/Hawker-Centres-Division/resize_1259901832200.jpg,Not eligible for HUP,Shunfu Road Blk 320 (Shunfu Mart),I,,28413.24,Shunfu Road,570320,"Blk 320, Shunfu Road, Singapore 570320",93EF4005DC826C1A,20210330151704,,,,,,,,
5,103.879417030673,1.31708335109103,49,20/9/1976,Existing,33261.95,http://www.nea.gov.sg/images/default-source/Hawker-Centres-Division/resize_1262153128123.jpg,HUP Reconfiguration,Sims Place Blk 49 (Sims Vista Market and Food Centre),I,15/11/2006,33130.31,Sims Place,380049,"Blk 49, Sims Place, Singapore 380049",87604B5AB1B25468,20210330151704,,,,,,,,
6,103.843177616296,1.28223514826381,335,31/5/1983,Existing,29408.57,http://www.nea.gov.sg/images/default-source/Hawker-Centres-Division/resize_1265168178798.jpg,HUP Reconfiguration,Smith Street Blk 335 (Chinatown Complex Market),I,30/4/2008,29097.23,Smith Street,50335,"Blk 335, Smith Street, Singapore 050335",B4A7F7D00E4690FF,20210330151704,,,,,,,,
7,103.721519868629,1.33458935951076,3,23/3/2005,Existing,35197.91,http://www.nea.gov.sg/images/default-source/Hawker-Centres-Division/resize_1262156147897.jpg,HUP Rebuilding,Taman Jurong Market and Food Centre,I,23/3/2005,15557.970000000001,Yung Sheng Road,618499,"3, Yung Sheng Road, Singapore 618499",45EB3EEB56AAB21F,20210330151704,7770.3,,,,,,,
8,103.944624481151,1.3456395210229,137,30/11/1982,Existing,36419.78,http://www.nea.gov.sg/images/default-source/Hawker-Centres-Division/resize_1262154543785.jpg,HUP Reconfiguration,Tampines Street 11 Blk 137 (Tampines Round Market and Food Centre),I,8/1/2006,40387.13,Tampines Street 11,521137,"Blk 137, Tampines Street 11, Singapore 521137",F6017D5F1F34E420,20210330151704,,,,,,,,
9,103.797625756738,1.30078931480841,48A,1964,Existing,31460.22,http://www.nea.gov.sg/images/default-source/Hawker-Centres-Division/resize_1262156211794.jpg,HUP Standard Upgrading,Tanglin Halt Market,I,1/10/2003,24027.71,Tanglin Halt Road,148813,"48A, Tanglin Halt Road, Singapore 148813",74052054BAD38DD9,20210330151704,2030.92,,,,,,,
10,103.843166992138,1.27661461066321,6,18/4/1977,Existing,28787.08,http://www.nea.gov.sg/images/default-source/Hawker-Centres-Division/blk-6-tanjong-pagar-plaza.jpg,HUP Standard Upgrading,Tanjong Pagar Plaza Blk 6 (Blk 6 Tanjong Pagar Plaza Market and Food Centre),I,27/12/2013,29096.05,Tanjong Pagar Plaza,81006,"Blk 6, Tanjong Pagar Plaza, Singapore 081006",90C2DF39720A2465,20210330151704,,,,,,,,
11,103.742891623681,1.32084835041654,37A,1/11/1976,Existing,33678.4,http://www.nea.gov.sg/images/default-source/Hawker-Centres-Division/resize_1262153022672.jpg,HUP Rebuilding,Teban Gardens Road Blk 37A (Teban Gardens Market and Food Centre),I,3/1/2008,17936.37,Teban Gardens Road,601037,"Blk 37A, Teban Garden Road, Singapore 601037",D50987C71DBF2D4C,20210330151704,,,,,,,,
12,103.818641695106,1.27736683810318,11,19/10/1974,Existing,28870.260000000002,http://www.nea.gov.sg/images/default-source/Hawker-Centres-Division/resize_1267876741836.gif,HUP Standard Upgrading,Telok Blangah Crescent Blk 11 (11 Telok Blangah Crescent Market and Food Centre),I,15/1/2010,26366.58,Telok Blangah Crescent,90011,"Blk 11, Telok Blangah Crescent, Singapore 090011",917DDC2AA52EDFBD,20210330151704,,,,,,,,
13,103.807626838954,1.27336828250285,79,30/5/1977,Existing,28428.13,http://www.nea.gov.sg/images/default-source/Hawker-Centres-Division/resize_1262153497855.jpg,HUP Standard Upgrading,Telok Blangah Drive Blk 79 (Telok Blangah Food Centre),I,20/8/2005,25140.71,Telok Blangah Drive,100079,"Blk 79, Telok Blangah Drive, Singapore 100079",47E27FD755A278B1,20210330151704,,,,,,,,
14,103.807943567416,1.27391379857001,82,30/5/1977,Existing,28488.45,http://www.nea.gov.sg/images/default-source/Hawker-Centres-Division/resize_1262153608307.jpg,HUP Standard Upgrading,Telok Blangah Drive Blk 82 (Telok Blangah Market),I,29/11/2011,25175.96,Telok Blangah Drive,100082,"Blk 82, Telok Blangah Drive, Singapore 100082",1EB09A2246D74491,20210330151704,,,,,,,,
15,103.82211725658,1.27271579716508,36,29/10/1975,Existing,28355.97,http://www.nea.gov.sg/images/default-source/Hawker-Centres-Division/resize_1267858653663.jpg,HUP Standard Upgrading,Telok Blangah Rise Blk 36 (Telok Blangah Rise Market),I,20/10/2010,26753.38,Telok Blangah Rise,90036,"Blk 36, Telok Blangah Rise, Singapore 090036",336A650EB617CFD9,20210330151704,,,,,,,,
16,103.832348785334,1.28508825756819,30,,Existing,29724.05,http://www.nea.gov.sg/images/default-source/Hawker-Centres-Division/resize_1262156378375.jpg,HUP Rebuilding,Tiong Bahru Market,I,10/2/2006,27892.07,Seng Poh Road,168898,"30, Seng Poh Road, Singapore 168898",0FAB58D04F39DCE2,20210330151704,10630.72,,,,,,,
17,103.84473162196,1.33809268551386,127,11/3/1969,Existing,35585.01,http://www.nea.gov.sg/images/default-source/Hawker-Centres-Division/resize_1262154499803.jpg,HUP Reconfiguration,Toa Payoh Lorong 1 Blk 127 (Toa Payoh West Market and Food Court),I,11/12/2003,29270.15,Lorong 1 Toa Payoh,310127,"Blk 127, Lorong 1 Toa Payoh, Singapore 310127",ED2DB7B7F7FA9EDB,20210330151704,,,,,,,,
18,103.851999137527,1.33454816495637,74,9/9/1968,Existing,35193.08,http://www.nea.gov.sg/images/default-source/Hawker-Centres-Division/resize_1262226848493.jpg,HUP Reconfiguration,Toa Payoh Lorong 4 Blk 74 (Toa Payoh Vista Market),I,1/11/2004,30078.95,Lorong 4 Toa Payoh,310074,"Blk 74, Lorong 4 Toa Payoh, Singapore 310074",0F387A4AD9309826,20210330151704,,,,,,,,
19,103.849513484035,1.3384747524617,93,19/7/1967,Existing,35627.26,http://www.nea.gov.sg/images/default-source/Hawker-Centres-Division/resize_1262154305312.jpg,HUP Standard Upgrading,Toa Payoh Lorong 4 Blk 93,I,20/7/2009,29802.32,Lorong 4 Toa Payoh,310093,"Blk 93, Lorong 4 Toa Payoh, Singapore 310093",8ED7D81782E22725,20210330151704,,,,,,,,
20,103.852941556275,1.33603882157063,75,5/2/1968,Existing,35357.91,http://www.nea.gov.sg/images/default-source/Hawker-Centres-Division/resize_1267878144152.jpg,HUP Standard Upgrading,Toa Payoh Lorong 5 Blk 75,I,21/11/2012,30183.83,Lorong 5 Toa Payoh,310075,"Blk 75, Lorong 5 Toa Payoh, Singapore 310075",83FB95F62E5F0D57,20210330151704,,,,,,,,
21,103.857036007166,1.33523145909678,22,2/3/1970,Existing,35268.64,http://www.nea.gov.sg/images/default-source/Hawker-Centres-Division/resize_1265168256123.jpg,HUP Reconfiguration,Toa Payoh Lorong 7 Blk 22 (Kim Keat Palm Market and Food Centre),I,16/7/2004,30639.5,Lorong 7 Toa Payoh,310022,"Blk 22, Lorong 7 Toa Payoh, Singapore 310022",E43A2111F5B01E10,20210330151704,,,,,,,,
22,103.854395279214,1.3402608349586,210,27/8/1974,Existing,35824.76,http://www.nea.gov.sg/images/default-source/Hawker-Centres-Division/resize_1267876959422.jpg,HUP Standard Upgrading,Toa Payoh Lorong 8 Blk 210,I,30/9/2011,30345.61,Lorong 8 Toa Payoh,310210,"Blk 210, Lorong 8 Toa Payoh, Singapore 310210",AD6CE850AB875900,20210330151704,,,,,,,,
23,103.871620273635,1.31502804429519,17,28/2/1974,Existing,33034.67,http://www.nea.gov.sg/images/default-source/Hawker-Centres-Division/resize_1262226056435.jpg,HUP Standard Upgrading,Upper Boon Keng Road Blk 17 (Blk 17 Upper Boon Keng Market and Food Centre),I,13/1/2009,32262.61,Upper Boon Keng Road,380017,"Blk 17, Upper Boon Keng Road, Singapore 380017",5A26A7AC10A29773,20210330151704,,,,,,,,
24,103.845818885585,1.28524640047048,531A,28/1/1978,Existing,29741.54,http://www.nea.gov.sg/images/default-source/Hawker-Centres-Division/resize_1267878882405.jpg,HUP Reconfiguration,Upper Cross Street Blk 531A (Hong Lim Food Centre and Market),,9/3/2011,29391.18,Upper Cross Street,51531,"Blk 531A, Upper Cross Street, Singapore 051531",A6069393A97212DA,20210330151704,,,,,,,,
25,103.759166093858,1.31188972115897,502,19/1/1995,Existing,32687.74,http://www.nea.gov.sg/images/default-source/Hawker-Centres-Division/resize_1265168297394.jpg,Not eligible for HUP,West Coast Drive Blk 502 (Ayer Rajah Market),I,,19747.53,West Coast Drive,120502,"Blk 502, West Coast Drive, Singapore 120502",2DBB0A9F6454B21E,20210330151704,,,,,,,,
26,103.759751321019,1.31180301004196,503,26/3/1979,Existing,32678.15,http://www.nea.gov.sg/images/default-source/Hawker-Centres-Division/resize_1265168322420.jpg,HUP Standard Upgrading,West Coast Drive Blk 503 (Ayer Rajah Food Centre),I,15/12/2002,19812.66,West Coast Drive,120503,"Blk 503, West Coast Drive, Singapore 120503",7A279834C9D8C00D,20210330151704,,,,,,,,
27,103.855137696535,1.32294306204189,90,26/8/1976,Existing,33909.85,http://www.nea.gov.sg/images/default-source/Hawker-Centres-Division/resize_1262154207158.jpg,HUP Standard Upgrading,Whampoa Drive Blk 90 (Whampoa Drive Makan Place/Whampoa Food Centre),I,25/10/2007,30428.25,Whampoa Drive,320090,"Blk 90, Whampoa Drive, Singapore 320090",16F08FA0DF20828F,20210330151704,,,,,,,,
28,103.85406806286,1.32342175143826,91/92,3/1/1973,Existing,33962.78,http://www.nea.gov.sg/images/default-source/Hawker-Centres-Division/resize_1262154257763.jpg,HUP Standard Upgrading,Whampoa Drive Blk 91/92 (Whampoa Drive Makan Place/Whampoa Market),I,25/10/2007,30309.21,Whampoa Drive,320091,"Blk 91/92, Whampoa Drive, Singapore 320091/320092",38A4F531009B6C26,20210330151704,,,,,,,,
29,103.844747581861,1.42501763803265,51,3/7/2017,Existing (new),45196.73,http://www.nea.gov.sg/images/default-source/Hawker-Centres-Division/yishun-hawker-centre.jpg,New Centre,Yishun Park Hawker Centre,,,29271.88,Yishun Avenue 11,768867,"Blk 51, Yishun Avenue 11, Singapore 768867",2676B659B081726B,20210330151704,3364,23/10/2015,Yishun Park Hawker Centre,25/11/2015,,,,
30,103.828537609942,1.43144768831222,104/105,31/3/1984,Existing,45907.73,http://www.nea.gov.sg/images/default-source/Hawker-Centres-Division/resize_1267438077554.jpg,HUP Standard Upgrading,Yishun Ring Road Blk 104/105 (Chong Pang Market and Food Centre),I,4/8/2003,27467.95,Yishun Ring Road,760104,"Blk 104/105, Yishun Ring Road, Singapore 760104/760105",A75CB1D53B86E438,20210330151704,,,,,,,,
31,103.831189303546,1.29234216757957,70,1976,Existing,30526.15,http://www.nea.gov.sg/images/default-source/Hawker-Centres-Division/resize_1267879560483.jpg,HUP Standard Upgrading,Zion Riverside Food Centre,I,5/3/2003,27763.03,Zion Road,247792,"70, Zion Road, Singapore 247792",41709ABECAA2B3FE,20210330151704,1421.31,,,,,,,
32,103.804715225285,1.29748567106686,38A,2021,Under Construction,31094.91,,New Replacement Centre,Margaret Drive Hawker Centre,,,24816.7,Margaret Drive,142038,,C80F896924AB4FE9,20210330151704,,11/5/2015,,2/12/2015,#N/A,hawker centre/branch office/supermarket/shops/flats,#N/A,#N/A
33,103.872090241567,1.3397961360031,202C,2022,Under Construction,35773.4,,New Centre,Woodleigh Village Hawker Centre,,,32314.87,Woodleigh Link,363202,,7729E118EB5F6F4B,20210330151704,,30/6/2017,Woodleigh Village,21/7/2017,#N/A,hawker centre/flats/bus interchange,#N/A,#N/A
34,103.888489618777,1.39691417603694,339,2022,Under Construction,42089.26,,New Centre,Anchorvale Village Hawker Centre,,,34139.8,Anchorvale Road,,,F50A43DB63480EAC,20210330151704,,27/4/2018,Anchorvale Village,28/5/2018,#N/A,hawker centre/supermarket/shops/flats,#N/A,#N/A
35,103.877060478847,1.39159232727757,21,2021,Under Construction,41500.770000000004,,New Centre,Fernvale Hawker Centre & Market,,,32867.9,Sengkang West Avenue,797650,,E3AB7D1730F180F6,20210330151704,,30/7/2018,Fernvale Hub,13/8/2018,#N/A,hawker centre/community club,#N/A,#N/A
36,103.904805657576,1.40818996870647,,2022,Under Construction,43336.13,,New Centre,Punggol Town Hub Hawker Centre,,,35955.520000000004,,,,4780858D55778C5B,20210330151704,,8/8/2018,Punggol Town Hub,29/8/2018,#N/A,hawker centre/Regional Library/Senior Care Centre/Branch Office/Child Development Centre/Blood Collection Centre/Kidney Dialysis Centre/Childcare Centre,#N/A,#N/A
37,103.908252830309,1.41456688638677,,2024,Under Construction,44041.270000000004,,New Centre,Punggol Digital District Hawker Centre,,,36339.12,Ponggol Seventeenth Avenue,,,9EA0132C23FB47D4,20210330151704,,8/8/2019,,21/8/2019,#N/A,hawker centre/community club/bus interchange/childcare centre/JTC industrial units,#N/A,#N/A
38,103.76126288878,1.38712226320812,,2021,Under Construction,41006.57,,New Centre,Senja Hawker Centre,,,19981.13,Senja Road,,,90C65760DFF1739F,20210330151704,,11/12/2018,,1/3/2019,#N/A,,#N/A,#N/A
39,103.741825836536,1.35521457121361,,2024,Under Construction,37478.450000000004,,New Centre,Bukit Batok Hawker Centre,,,17817.9,Bukit Batok West Avenue 6,,,E3C2D628D3F2486F,20210330151704,,31/12/2020,,21/1/2021,#N/A,hawker centre/flats,#N/A,#N/A
40,103.850164578087,1.2844248503218,50,2021,Under Construction,29650.7,,New Replacement Centre,Market Street Hawker Centre,,,29874.82,Market Street,48940,,DB83871DCC26698E,20201030102222,,17/7/2017,CapitaSpring,1/8/2017,#N/A,hawker centre/commercial space,#N/A,#N/A
41,103.892403203249,1.38238755827879,,2022,Under Construction,40482.99,,New Centre,Buangkok Hawker Centre,,,34575.37,Sengkang Central,,,0FFF4B5281FBBC71,20201030102222,,18/9/2019,Sengkang Grand,29/10/2019,#N/A,hawker centre/community club/bus interchange/private residential and commercial units,#N/A,#N/A
42,103.91405388831,1.33315924777343,630,30/6/1982,Existing,35039.64,http://www.nea.gov.sg/images/default-source/Hawker-Centres-Division/resize_1262155176127.jpg,HUP Rebuilding,Bedok Reservoir Road Blk 630,I,28/2/2006,36985,Bedok Reservoir Road,470630,"Blk 630, Bedok Reservoir Road, Singapore 470630",BBA7FF2B2C2C130F,20210330151704,,,,,,,,
43,103.93553909635,1.32055216480957,16,12/5/1975,Existing,33645.7,http://www.nea.gov.sg/images/default-source/Hawker-Centres-Division/resize_1267853021378.jpg,HUP Standard Upgrading,Bedok South Road Blk 16,I,20/9/2012,39376.14,Bedok South Road,460016,"Blk 16, Bedok South Road, Singapore 460016",483F3877120EF5AA,20210330151704,,,,,,,,
44,103.863021377531,1.31921699786807,29,17/3/1971,Existing,33497.85,http://www.nea.gov.sg/images/default-source/Hawker-Centres-Division/resize_1262226446535.jpg,HUP Standard Upgrading,Bendemeer Road Blk 29 (Bendemeer Market and Food Centre),I,31/12/2004,31305.63,Bendemeer Road,330029,"Blk 29, Bendemeer Road, Singapore 330029",A7DB5A3E665DE46E,20210330151704,,,,,,,,
45,103.827358017197,1.28882210205212,38A,1965,Existing,30136.920000000002,http://www.nea.gov.sg/images/default-source/Hawker-Centres-Division/resize_1267807628554.jpg,HUP Standard Upgrading,Beo Crescent Market,I,18/1/2010,27336.64,Beo Crescent,169982,"38A, Beo Crescent, Singapore 169982",D232402B6D84FBBE,20210330151704,1733.074,,,,,,,
46,103.856853966617,1.30733651651517,166,1975,Existing,32184.16,http://www.nea.gov.sg/images/default-source/Hawker-Centres-Division/resize_1265176120532.jpg,HUP Standard Upgrading,Berseh Food Centre,I,5/3/2004,30619.27,Jalan Besar,208877,"166, Jalan Besar, Singapore 208877",A7CCEB2CA6AC0B4B,20210330151704,2568.95,,,,,,,
47,103.712799765872,1.3452231627967,221A/B,2/1/1976,Existing,36373.79,http://www.nea.gov.sg/images/default-source/Hawker-Centres-Division/resize_1262154766447.jpg,HUP Reconfiguration,Boon Lay Place Blk 221A/B (Boon Lay Place Market and Food Village),I,1/8/2004,14587.57,Boon Lay Place,641221,"Blk 221A/B, Boon Lay Place, Singapore 641221/642221",84F8C2B46575585C,20210330151704,,,,,,,,
48,103.850530969624,1.30620584090733,665,31/10/1980,Existing,32059.13,http://www.nea.gov.sg/images/default-source/Hawker-Centres-Division/resize_1262156313186.jpg,HUP Standard Upgrading,Buffalo Road Blk 665 (Tekka Centre/Zhu Jiao Market),I,30/6/2009,29915.58,Buffalo Road,210665,"Blk 665, Buffalo Road, Singapore 210665",D09ADF3409AC0894,20210330151704,,,,,,,,
49,103.816992390295,1.28369258928085,163,5/5/1980,Existing,29569.73,http://www.nea.gov.sg/images/default-source/Hawker-Centres-Division/resize_1267851995788.jpg,Opted out of HUP,Bukit Merah Central Blk 163 (Bukit Merah Central Food Centre),I,,26183.03,Bukit Merah Central,150163,"Blk 163, Bukit Merah Central, Singapore 150163",16F0047A45BF34F9,20210330151704,,,,,,,,
50,103.804489277779,1.28629777221659,120,14/9/1978,Existing,29857.81,http://www.nea.gov.sg/images/default-source/Hawker-Centres-Division/resize_1267852344747.jpg,HUP Standard Upgrading,Bukit Merah Lane 1 Blk 120 (Alexandra Village Food Centre),I,15/11/2010,24791.54,Bukit Merah Lane 1,150120,"Blk 120, Bukit Merah Lane, Singapore 150120",98A3C26D48032FF5,20210330151704,,,,,,,,
51,103.822049361292,1.28550478314618,115,29/3/1973,Existing,29770.11,http://www.nea.gov.sg/images/default-source/Hawker-Centres-Division/resize_1267851251303.jpg,HUP Standard Upgrading,Bukit Merah View Blk 115 (Blk 115 Bukit Merah View Market and Food Centre),I,28/2/2012,26745.83,Bukit Merah View,151115,"Blk 115, Bukit Merah View, Singapore 151115",7A2BDBF505C0CC30,20210330151704,,,,,,,,
52,103.772489583206,1.37760053528611,2,31/7/2015,Existing (new),39953.67,http://www.nea.gov.sg/images/default-source/Hawker-Centres-Division/bukit-panjang-hawker-centre.jpg,New Centre,Bukit Panjang Hawker Centre,,,21230.49,Bukit Panjang Ring Road,679947,"2 Bukit Panjang Ring Road, Singapore 679947",2FEB0DCC8CCF59D4,20210330151704,4500,,,,,,,
53,103.822399230842,1.44921660555282,,2022,Under Construction,47872.53,,New Centre,Bukit Canberra Hawker Centre,,,26784.850000000002,,,,DA1BB824290E5BA5,20210901151920,,1/5/2018,Bukit Canberra,17/5/2018,#N/A,hawker centre/Town Sports and Recreational Centre/Primary Care Centre & Senior Care Centre,#N/A,#N/A
54,103.848973726501,1.28159564281228,5,24/5/2017,Existing,29337.86,http://www.nea.gov.sg/images/default-source/Hawker-Centres-Division/resize_1262225979894.jpg,Interim Centre,Market Street Interim Hawker Centre,,,29742.29,Cross Street,48418,"5, Cross Street, Singapore 048148",2120FA820A4A9786,20210330151704,1817.18,,Market Street Interim Hawker Centre,,,,,
55,103.777203165702,1.44388181695611,20/21,15/9/1975,Existing,47282.71,http://www.nea.gov.sg/images/default-source/Hawker-Centres-Division/resize_1262152527264.jpg,HUP Standard Upgrading,Marsiling Lane Blk 20/21,I,2/3/2009,21755.23,Marsiling Lane,730020,"Blk 20/21, Marsiling Lane, Singapore 730020/730021",F48BB5AA1CD92E13,20210330151704,,,,,,,,
56,103.779784899996,1.43353885680037,4,8/11/2017,Existing (new),46139.03,http://www.nea.gov.sg/images/default-source/Hawker-Centres-Division/mmhc.jpg,New Replacement Centre,Marsiling Mall Hawker Centre,,,22042.510000000002,Woodlands Street 12,738623,"Blk 4,Woodlands St 12,SingaporeÂ 738623",67D9A36B9A97AE82,20210330151704,3661,4/9/2015,Marsiling Mall,1/1/2016,,hawker centre/supermarket/shops,,
57,103.844827863123,1.28011223513205,1,1935,Existing,29173.83,http://www.nea.gov.sg/images/default-source/Hawker-Centres-Division/resize_1262155734465.jpg,Upgraded prior to HUP,Maxwell Food Centre (Kim Hua Market),I,,29280.89,Kadayanallur Street,69184,"1, Kadayanallur Street, Singapore 069184",FE75522D464BE5EA,20210330151704,3365.392,,,,,,,
58,103.802903901116,1.29323622090658,159,12/10/1970,Existing,30625.03,http://www.nea.gov.sg/images/default-source/Hawker-Centres-Division/resize_1262154581891.jpg,HUP Reconfiguration,Mei Chin Road Blk 159 (Mei Chin Road Market),I,8/5/2009,24615.11,Mei Chin Road,140159,"Blk 159, Mei Chin Road, Singapore 140159",58C10BCC7F14A9E6,20210330151704,,,,,,,,
59,103.842578750107,1.28499102169498,32,1965,Existing,29713.3,http://www.nea.gov.sg/images/default-source/Hawker-Centres-Division/resize_1265168123284.jpg,HUP Standard Upgrading,New Market Road Blk 32 (People's Park Food Centre),I,27/12/2005,29030.58,New Market Road,50032,"Blk 32, New Market Road, Singapore 050032",431889D30CA6E5AD,20210330151704,,,,,,,,
60,103.93056047823,1.32473884451035,208B,15/11/2014,Existing,34108.62,http://www.nea.gov.sg/images/default-source/Hawker-Centres-Division/bedok-interchange-hawker-centre.jpg,New Replacement Centre,New Upper Changi Road Blk 208B,I,,38822.05,New Upper Changi Road,462208,"Blk 208B, New Upper Changi Road, Singapore 462208",03BAD66511FD945D,20210330151704,,,,,,,,
61,103.941132372619,1.32418782817919,58,27/2/1978,Existing,34047.74,http://www.nea.gov.sg/images/default-source/Hawker-Centres-Division/resize_1262153263293.jpg,HUP Standard Upgrading,New Upper Changi Road Blk 58,I,16/9/2008,39998.6,New Upper Changi Road,461058,"Blk 58, New Upper Changi Road, Singapore 461058",57B99402997CB2CA,20210330151704,,,,,,,,
62,103.839562687644,1.31189235691653,500,1971,Existing,32687.91,http://www.nea.gov.sg/images/default-source/Hawker-Centres-Division/resize_1262155777485.jpg,HUP Standard Upgrading,Newton Food Centre,I,12/6/2006,28694.91,Clemenceau Ave North,229495,"500, Clemenceau Ave North, Singapore 229495",A3E978497212B9F7,20210330151704,3252.75,,,,,,,
63,103.863891012338,1.30576537802761,861,1973,Existing,32010.440000000002,http://www.nea.gov.sg/images/default-source/Hawker-Centres-Division/resize_1262155297184.jpg,HUP Reconfiguration,North Bridge Road Market,I,17/10/2005,31402.43,North Bridge Road,198783,"861, North Bridge Road, Singapore 198783",3B33AC4CEF5F6B1C,20210330151704,3004.63,,,,,,,
64,103.885833217727,1.30825156309798,51,17/2/1973,Existing,32285.39,http://www.nea.gov.sg/images/default-source/Hawker-Centres-Division/resize_1262153198645.jpg,HUP Standard Upgrading,Old Airport Road Blk 51 (51 Old Airport Road Food Centre and Shopping Mall),I,12/6/2007,33844.39,Old Airport Road,390051,"Blk 51, Old Airport Road, Singapore 390051",49DC3EB4330D8E97,20210330151704,,,,,,,,
65,103.939726160039,1.35386211773287,1,6/8/2016,Existing (new),37328.97,http://www.nea.gov.sg/images/default-source/Hawker-Centres-Division/our-tampines-hub.jpg,New Centre,Our Tampines Hub,,,39841.96,Tampines Walk,528523,"1 Tampines Walk, Singapore 528523",17E2D59BE03D01F0,20210330151704,2241,7/5/2014,Our Tampines Hub,1/8/2013,,hawker centre/ community club  offices/regional library/heritage centre/swimming complex/sports facilities/branch hawker centre/office/national arts council/hometeam ns clubhouse/family medical centre/senior care centre,,
66,103.791402660553,1.27590752450201,121,1978,Existing,28708.93,http://www.nea.gov.sg/images/default-source/Hawker-Centres-Division/resize_1262155813373.jpg,HUP Standard Upgrading,Pasir Panjang Food Centre,I,20/5/2002,23335.09,Pasir Panjang Road,118543,"121, Pasir Panjang Road, Singapore 118543",311FCFFE66B6917D,20210330151704,1115.71,,,,,,,
67,103.951543034782,1.37343413973246,110,16/10/2017,Existing (new),39493.21,http://www.nea.gov.sg/images/default-source/Hawker-Centres-Division/pasir-ris-central-hawker-centre.jpg,New Centre,Pasir Ris Central Hawker Centre,,,41156.94,Pasir Ris Central,519641,"Blk 110, Pasir Ris Central, Singapore 519641",0EC198F965C801F8,20210330151704,4771,15/7/2015,Pasir Ris Central Hawker Centre,29/7/2015,,,,
68,103.854211645499,1.30100146521405,270,7/8/1978,Existing,31483.66,http://www.nea.gov.sg/images/default-source/Hawker-Centres-Division/resize_1267850253199.jpg,HUP Standard Upgrading,Queen Street Blk 270 (Albert Centre),I,26/11/2009,30325.21,Queen Street,180270,"Blk 270, Queen Street, Singapore 180270",0906CEDC0663C53A,20210330151704,,,,,,,,
69,103.814165010384,1.32413422253318,2,1974,Existing,34041.56,http://www.nea.gov.sg/images/default-source/Hawker-Centres-Division/resize_1267437914368.jpg,HUP Standard Upgrading,Adam Road Food Centre,I,30/4/2002,25868.4,Adam Road,289876,"2, Adam Road, Singapore 289876",EC26BEAC6FC68D04,20210330151704,941.5,,,,,,,
70,103.88701902611,1.32064829234987,117,15/9/1978,Existing,33656.16,http://www.nea.gov.sg/images/default-source/Hawker-Centres-Division/resize_1262154437879.jpg,HUP Standard Upgrading,Aljunied Ave 2 Blk 117 (Blk 117 Aljunied Market and Food Centre),I,30/11/2005,33976.33,Aljunied Ave 2,380117,"Blk 117, Aljunied Ave 2, Singapore 380117",AA7744C0BF961D25,20210330151704,,,,,,,,
71,103.846606784092,1.27921844263269,,1983,Existing,29075,http://www.nea.gov.sg/images/default-source/Hawker-Centres-Division/resize_1265968760190.jpg,HUP Standard Upgrading,Amoy Street Food Centre (Telok Ayer Food Centre),I,17/2/2003,29478.87,Telok Ayer Street,69111,"National Development Building, Annex B, Telok Ayer Street, Singapore 069111",81106E0569F14101,20210330151704,3539,,National Development Building,,,,,
72,103.839231344066,1.36678764523637,226D,13/10/1976,Existing,38757.950000000004,http://www.nea.gov.sg/images/default-source/Hawker-Centres-Division/resize_1262154827180.jpg,HUP Standard Upgrading,Ang Mo Kio Ave 1 Blk 226D (Kebun Baru Market and Food Centre),I,20/1/2010,28658.02,Ang Mo Kio Ave 1,564226,"Blk 226D, Ang Mo Kio Ave 1, Singapore 564226",0177924BDD93F6F1,20210330151704,,,,,,,,
73,103.848254220438,1.36410517096399,341,1979,Existing,38461.340000000004,http://www.nea.gov.sg/images/default-source/Hawker-Centres-Division/resize_1275538105392.jpg,HUP Rebuilding,Ang Mo Kio Ave 1 Blk 341 (Teck Ghee Court),I,1/3/2002,29662.16,Ang Mo Kio Ave 1,560341,"Blk 341, Ang Mo Kio Ave 1, Singapore 560341",07D7927BB122EA19,20210330151704,,,,,,,,
74,103.855369790045,1.36276891777383,409,31/7/1979,Existing,38313.590000000004,http://www.nea.gov.sg/images/default-source/Hawker-Centres-Division/resize_1275538704472.jpg,HUP Standard Upgrading,Ang Mo Kio Ave 10 Blk 409 (Teck Ghee Square),I,28/11/2011,30454.04,Ang Mo Kio Ave 10,560409,"Blk 409, Ang Mo Kio Ave 10, Singapore 560409",6728AD9466975650,20210330151704,,,,,,,,
75,103.856351437414,1.36824049310006,453A,11/4/1979,Existing,38918.61,http://www.nea.gov.sg/images/default-source/Hawker-Centres-Division/resize_1259902043777.jpg,HUP Standard Upgrading,Ang Mo Kio Ave 10 Blk 453A (Chong Boon Market and Food Centre),I,1/1/2002,30563.28,Ang Mo Kio Ave 10,561453,"Blk 453A, Ang Mo Kio Ave 10, Singapore 561453",D0070B6740BA2459,20210330151704,,,,,,,,
76,103.854482811591,1.37276992816898,527,24/12/1979,Existing,39419.450000000004,http://www.nea.gov.sg/images/default-source/Hawker-Centres-Division/resize_1265165592824.jpg,HUP Reconfiguration,Ang Mo Kio Ave 10 Blk 527 (Cheng San Market and Cooked Food Centre),I,21/2/2004,30355.32,Ang Mo Kio Ave 10,560527,"Blk 527, Ang Mo Kio Ave 10, Singapore 560527",4658734009F689AC,20210330151704,,,,,,,,
77,103.839214290038,1.37448912101909,160/162,30/6/1981,Existing,39609.54,http://www.nea.gov.sg/images/default-source/Hawker-Centres-Division/resize_1265165416622.jpg,HUP Standard Upgrading,Ang Mo Kio Ave 4 Blk 160/162 (Mayflower Market),I,31/12/2008,28656.12,Ang Mo Kio Ave 4,560160,"Blk 160/162, Ang Mo Kio Ave 4, Singapore 560160/560162",546287EB6E4D82D7,20210330151704,,,,,,,,
78,103.840682307297,1.38102486670548,628,31/12/1979,Existing,40332.23,http://www.nea.gov.sg/images/default-source/Hawker-Centres-Division/blk-628-ang-mo-kio-ave-4.jpg,HUP Rebuilding,Ang Mo Kio Ave 4 Blk 628 (Ang Mo Kio 628 Market),I,16/12/2009,28819.49,Ang Mo Kio Ave 4,560628,"Blk 628, Ang Mo Kio Ave 4, Singapore 560628",CE6A36B469B2B914,20210330151704,,,,,,,,
79,103.846519219268,1.37219743270045,724,31/1/1980,Existing,39356.14,http://www.nea.gov.sg/images/default-source/Hawker-Centres-Division/resize_1262155216756.jpg,HUP Reconfiguration,Ang Mo Kio Ave 6 Blk 724 (Blk 724 Ang Mo Kio Market),I,2/1/2008,29469.07,Ang Mo Kio Ave 6,560724,"Blk 724, Ang Mo Kio Ave 6, Singapore 560724",8285869DC2133C35,20210330151704,,,,,,,,
80,103.839953165936,1.36723014879667,226H,30/9/1976,Existing,38806.88,http://www.nea.gov.sg/images/default-source/Hawker-Centres-Division/resize_1259901689557.jpg,HUP Reconfiguration,Ang Mo Kio Street 22 Blk 226H (Kebun Baru Food Centre),I,13/12/2003,28738.350000000002,Ang Mo Kio Street 22,568226,"Blk 226H, Ang Mo Kio Street 22, Singapore 568226",69908CB7FA26111C,20210330151704,,,,,,,,
81,103.955474150677,1.32035600765426,1,1971,Existing,33624.11,http://www.nea.gov.sg/images/default-source/Hawker-Centres-Division/resize_1265176030572.jpg,HUP Rebuilding,Bedok Food Centre,I,6/2/2005,41594.72,Bedok Road,469572,"1, Bedok Road, Singapore 469572",5074BAFF0FF40404,20210330151704,1081.18,,,,,,,
82,103.933221544751,1.32706240888967,216,21/8/1979,Existing,34365.56,http://www.nea.gov.sg/images/default-source/Hawker-Centres-Division/resize_1262154705733.jpg,HUP Standard Upgrading,Bedok North Street 1 Blk 216,I,15/12/2008,39118.19,Bedok North Street 1,460216,"Blk 216, Bedok North Street 1, Singapore 460216",B8E4DB8C5DC40E07,20210330151704,,,,,,,,
83,103.930602144469,1.33324627868937,511,16/3/1979,Existing,35049.33,http://www.nea.gov.sg/images/default-source/Hawker-Centres-Division/resize_1265166047112.jpg,HUP Standard Upgrading,Bedok North Street 3 Blk 511 (Kaki Bukit 511 Market and Food Centre),I,1/7/2004,38826.65,Bedok North Street 3,460511,"Blk 511, Bedok North Street 3, Singapore 460511",29D02D34F4826475,20210330151704,,,,,,,,
84,103.924844235398,1.33178125123252,538,30/4/1979,Existing,34887.31,http://www.nea.gov.sg/images/default-source/Hawker-Centres-Division/resize_1262227194623.jpg,HUP Standard Upgrading,Bedok North Street 3 Blk 538,I,3/12/2010,38185.86,Bedok North Street 3,460538,"Blk 538, Bedok North Street 3, Singapore 460538",F1A5DD5A88C6320D,20210330151704,,,,,,,,
85,103.818402623449,1.2878581025663,79,1/1/1969,Existing,30030.33,http://www.nea.gov.sg/images/default-source/Hawker-Centres-Division/resize_1262153664347.jpg,HUP Reconfiguration,Redhill Lane Blk 79 (Redhill Market),I,28/6/2005,26339.98,Redhill Lane,150079,"Blk 79, Redhill Lane, Singapore 150079",ECAC58C7830DA23E,20210330151704,,,,,,,,
86,103.775995008012,1.33937596351523,51,1975,Existing,35726.98,http://www.nea.gov.sg/images/default-source/Hawker-Centres-Division/resize_1265176195262.jpg,HUP Standard Upgrading,Bukit Timah Market,I,2/1/2003,21620.5,Upper Bukit Timah Road,588215,"51, Upper Bukit Timah Road, Singapore 588215",FD4DDC8C44684285,20210330151704,3310.64,,,,,,,
87,103.850225081031,1.31615991374589,41A,18/12/1981,Existing,33159.8,http://www.nea.gov.sg/images/default-source/Hawker-Centres-Division/resize_1265166819326.jpg,HUP Reconfiguration,Cambridge Road Blk 41A (Pek Kio Market and Food Centre),I,7/3/2003,29881.53,Cambridge Road,211041,"Blk 41A, Cambridge Road, Singapore 211041",FBD170F330300185,20210330151704,,,,,,,,
88,103.988245749103,1.38915172065006,2&3,12/11/1975,Existing,41231.42,http://www.nea.gov.sg/images/default-source/Hawker-Centres-Division/resize_1267846802175.jpg,HUP Standard Upgrading,Changi Village Blk 2 and 3,I,28/12/2012,45241.4,Changi Village Road,500002,"Blk 2/3, Changi Village Road, Singapore 500002/500003",DC5973E8261726EB,20210330151704,,,,,,,,
89,103.866536130299,1.36422852315868,20,1972,Existing,38475,http://www.nea.gov.sg/images/default-source/Hawker-Centres-Division/resize_1262155330191.jpg,HUP Standard Upgrading,Chomp Chomp Food Centre,I,31/3/2004,31696.72,Kensington Park Road,557269,"20, Kensington Park Road, Singapore 557269",FD83AAB03A20C9C8,20210330151704,613.55,,,,,,,
90,103.882977999397,1.37542896666561,51,2/7/2015,Existing (new),39713.520000000004,http://www.nea.gov.sg/images/default-source/Hawker-Centres-Division/ci-yuan-hawker-centre.jpg,New Centre,Ci Yuan Hawker Centre,,,33526.48,Hougang Avenue 9,538776,"51 Hougang Avenue 9, Singapore 538776",2AA90E9CB7222D3A,20210330151704,2047.29,,,,,hawker centre/community club/family medicine clinic/senior care centre,,
91,103.885043500019,1.32644992167231,79/79A,31/3/1971,Existing,34297.67,http://www.nea.gov.sg/images/default-source/Hawker-Centres-Division/resize_1280824598.jpg,HUP Standard Upgrading,Circuit Road Blk 79/79A,I,11/5/2010,33756.46,Circuit Road,370079,"Blk 79/79A, Circuit Road, Singapore 370079/371079",B1F15E00618BA3B5,20210330151704,,,,,,,,
92,103.887128535137,1.32784956142548,80,1/9/1967,Existing,34452.44,http://www.nea.gov.sg/images/default-source/Hawker-Centres-Division/resize_1262153912521.jpg,HUP Reconfiguration,Circuit Road Blk 80 (80 Circuit Road Market and Food Centre),I,22/2/2003,33988.5,Circuit Road,370080,"Blk 80, Circuit Road, Singapore 370080",3BE7F742E98EBFE9,20210330151704,,,,,,,,
93,103.885449224256,1.32344525333847,89,1/9/1967,Existing,33965.43,http://www.nea.gov.sg/images/default-source/Hawker-Centres-Division/resize_1262154127554.jpg,HUP Standard Upgrading,Circuit Road Blk 89,I,8/4/2009,33801.62,Circuit Road,370089,"Blk 89, Circuit Road, Singapore 370089",4EDE2CCE3A356895,20210330151704,,,,,,,,
94,103.770836740843,1.31436772839327,353,26/1/1978,Existing,32961.71,http://www.nea.gov.sg/images/default-source/Hawker-Centres-Division/resize_1267847852167.jpg,HUP Standard Upgrading,Clementi Ave 2 Blk 353 (Clementi Ave 2 Market/Cooked Food Centre),I,25/10/2012,21046.37,Clementi Ave 2,120353,"Blk 353, Clementi Ave 2, Singapore 120353",42176A301ABBD91A,20210330151704,,,,,,,,
95,103.764510533078,1.31326486994113,448,12/1/1980,Existing,32839.78,http://www.nea.gov.sg/images/default-source/Hawker-Centres-Division/resize_1267848308255.jpg,HUP Standard Upgrading,Clementi Ave 3 Blk 448,I,29/10/2010,20342.32,Clementi Ave 3,120448,"Blk 448, Clementi Ave 3, Singapore 120448",FDAC6B2723D97329,20210330151704,,,,,,,,
96,103.764264410293,1.3037819726711,726,29/11/1980,Existing,31791.21,http://www.nea.gov.sg/images/default-source/Hawker-Centres-Division/resize_1262155262246.jpg,HUP Standard Upgrading,Clementi West Street 2 Blk 726,I,26/11/2009,20314.9,Clementi West Street 2,120726,"Blk 726, Clementi West Street 2, Singapore 120726",3B5F054B978C6724,20210330151704,,,,,,,,
97,103.800362825517,1.3068922760844,31,1965,Existing,32135.05,http://www.nea.gov.sg/images/default-source/Hawker-Centres-Division/resize_1265167388780.jpg,HUP Rebuilding,Commonwealth Crescent Market,I,18/8/2004,24332.33,Commonwealth Crescent,149644,"31, Commonwealth Crescent, Singapore 149644",35C408FD964DAE7E,20210330151704,3040.58,,,,,,,
98,103.797875477439,1.29971330531884,1A/2A/3A,16/11/1981,Existing,31341.24,http://www.nea.gov.sg/images/default-source/Hawker-Centres-Division/commonwealth.jpg,HUP Standard Upgrading,Commonwealth Drive Blk 1A/2A/3A (Tanglin Halt Food Centre/Commonwealth Drive Food Centre),I,15/1/2010,24055.5,Commonwealth Drive,141001,"Blk 1A/ 2A/ 3A, Commonwealth Drive, Singapore 140001/140002/140003",B823DC77E8881910,20210330151704,,,,,,,,
99,103.90182514721,1.30941418731185,271,1974,Existing,32413.99,http://www.nea.gov.sg/images/default-source/Hawker-Centres-Division/resize_1262155459807.jpg,HUP Standard Upgrading,Dunman Food Centre,I,3/12/2002,35624.14,Onan Road,424768,"271, Onan Road, Singapore 424768",5924E48967AD2F1B,20210330151704,984,,,,,,,
100,103.935016747249,1.30668431820832,1220,1978,Existing,32112.260000000002,http://www.nea.gov.sg/images/default-source/Hawker-Centres-Division/resize_1262155504536.jpg,HUP Rebuilding,East Coast Lagoon Food Village,I,10/12/2003,39318.07,East Coast Parkway,468960,"1220, East Coast Parkway, Singapore 468960",1D6E51B459D243DC,20210330151704,3600.16,,,,,,,
101,103.805636386821,1.31624573118373,7,26/3/1976,Existing,33169.3,http://www.nea.gov.sg/images/default-source/Hawker-Centres-Division/resize_1262152572393.jpg,HUP Standard Upgrading,Empress Road Blk 7 (Empress Road Market and Food Centre),I,2/12/2008,24919.24,Empress Road,260007,"Blk 7, Empress Road, Singapore 260007",2DAAEFC79D87F782,20210330151704,,,,,,,,
102,103.904260878989,1.32033178221424,4A,7/7/2000,Existing,33621.21,http://www.nea.gov.sg/images/default-source/Hawker-Centres-Division/resize_1267873497497.jpg,HUP Standard Upgrading,Eunos Crescent Blk 4A,I,30/3/2012,35895.18,Eunos Crescent,402004,"Blk 4A, Eunos Crescent, Singapore 402004",E0DC5CBB9268718E,20210330151704,,,,,,,,
103,103.870004415152,1.32146226027018,69,16/1/1974,Existing,33746.13,http://www.nea.gov.sg/images/default-source/Hawker-Centres-Division/blk-69-geylang-bahru.jpg,Opted out of HUP,Geylang Bahru Blk 69 (Blk 69 Geylang Bahru Market and Food Centre),I,,32082.77,Geylang Bahru,330069,"Blk 69, Geylang Bahru, Singapore 330069",1CDA71371CC2DA75,20210330151704,,,,,,,,
104,103.898224315881,1.3167281476983,,3/7/2009,Existing,33222.72,http://www.nea.gov.sg/images/default-source/Hawker-Centres-Division/resize_1262155542468.jpg,HUP Rebuilding,Geylang Serai Market,I,3/7/2009,35223.38,Geylang Serai,402001,"1, Geylang Serai, Singapore 402001",A247BF61FBD3E2E3,20210330151704,11534.9,,,,,,,
105,103.788230657145,1.31099627311591,20,24/1/1977,Existing,32588.87,http://www.nea.gov.sg/images/default-source/Hawker-Centres-Division/resize_1267848628803.jpg,Opted out of HUP,Ghim Moh Road Blk 20,I,,22982.14,Ghim Moh Road,270020,"Blk 20, Ghim Moh Road, Singapore 270020",8A5C1B47E9725C03,20210330151704,,,,,,,,
106,103.863883249985,1.30287548090781,505,1975,Existing,31690.89,http://www.nea.gov.sg/images/default-source/Hawker-Centres-Division/resize_1262155571228.jpg,HUP Standard Upgrading,Golden Mile Food Centre,I,4/7/2002,31401.57,Beach Road,199583,"505, Beach Road, Singapore 199583",68D2109268BB12D3,20210330151704,6249.229,,,,,,,
107,103.895609494855,1.3151420505272,13/14,30/7/1977,Existing,33047.33,http://www.nea.gov.sg/images/default-source/Hawker-Centres-Division/resize_1267848993155.jpg,HUP Reconfiguration,Haig Road Blk 13/14 (Haig Road Market and Cooked Food Centre),I,4/8/2010,34932.38,Haig Road,430013,"Blk 13/14, Haig Road, Singapore 430013/430014",110148A54339D2AF,20210330151704,,,,,,,,
108,103.829626834637,1.28797543998733,22A/B,16/11/1969,Existing,30043.3,http://www.nea.gov.sg/images/default-source/Hawker-Centres-Division/resize_1262152823428.jpg,HUP Standard Upgrading,Havelock Road Blk 22A/B (Havelock Road Cooked Food Centre),I,27/4/2007,27589.14,Havelock Road,161022,"Blk 22A/B, Havelock Road, Singapore 161022/162022",1CFBA3CBF816CC4F,20210330151704,,,,,,,,
109,103.792773765463,1.30811775909823,44,31/1/1999,Existing,32270.57,http://www.nea.gov.sg/images/default-source/Hawker-Centres-Division/resize_1267849222112.jpg,HUP Standard Upgrading,Holland Drive Blk 44 (Holland Drive Market and Food Centre),I,31/3/2014,23487.74,Holland Drive,270044,"Blk 44, Holland Drive, Singapore 270044",A15ED2B9E5ED3A17,20210330151704,,,,,,,,
110,103.794862936127,1.31090802808558,1,Pre-War,Existing,32579.100000000002,http://www.nea.gov.sg/images/default-source/Hawker-Centres-Division/resize_1267415509849.jpg,HUP Rebuilding,Holland Village Market and Food Centre,I,12/12/2005,23720.25,Lorong Mambong,277700,"1, Lorong Mambong, Singapore 277700",69A5ED12F17FF1A2,20210330151704,1512.38,,,,,,,
111,103.890081064953,1.35383739101169,105,30/6/1982,Existing,37326.05,http://www.nea.gov.sg/images/default-source/Hawker-Centres-Division/resize_1259901634108.jpg,HUP Rebuilding,Hougang Ave 1 Blk 105 (Hougang 105 Hainanese Village Centre),I,11/11/2005,34317.020000000004,Hougang Ave 1,530105,"Blk 105, Hougang Ave 1, Singapore 530105",47665F14287E07ED,20210330151704,,,,,,,,
112,103.885977616903,1.35911942212642,209,30/9/1983,Existing,37910.1,http://www.nea.gov.sg/images/default-source/Hawker-Centres-Division/resize_1267849628846.jpg,HUP Standard Upgrading,Hougang Street 21 Blk 209 (Kovan Hougang Market and Food Centre),I,24/1/2011,33860.340000000004,Hougang Street 21,530209,"Blk 209, Hougang Street 21, Singapore 530209",5F6AEDB798290159,20210330151704,,,,,,,,
113,103.88394058022,1.30241881353449,4A,3/1/1969,Existing,31640.43,http://www.nea.gov.sg/images/default-source/Hawker-Centres-Division/resize_1267874223880.jpg,HUP Standard Upgrading,Jalan Batu Blk 4A (Blk 4A Jalan Batu Hawker Centre/Market),I,16/2/2012,33633.770000000004,Jalan Batu,432004,"Blk 4A, Jalan Batu, Singapore 432004",551478E060A1C8F0,20210330151704,,,,,,,,
114,103.826013285715,1.28000481198881,112,1/1/1969,Existing,29161.95,http://www.nea.gov.sg/images/default-source/Hawker-Centres-Division/resize_1267874698833.jpg,HUP Standard Upgrading,Jalan Bukit Merah Blk 112 (Blk 112 Jalan Bukit Merah Market and Food Centre),I,28/11/2013,27186.98,Jalan Bukit Merah,160112,"Blk 112, Jalan Bukit Merah, Singapore 160112",F6CA40B9C5AB229D,20210330151704,,,,,,,,
115,103.808127999318,1.28695275198944,6,11/10/1974,Existing,29930.23,http://www.nea.gov.sg/images/default-source/Hawker-Centres-Division/resize_1267760203.jpg,HUP Reconfiguration,Jalan Bukit Merah Blk 6 (ABC Brickworks Market/Food Centre),I,11/8/2006,25196.5,Jalan Bukit Merah,150006,"Blk 6, Jalan Bukit Merah, Singapore 150006",D9BD256FB27FC06C,20210330151704,,,,,,,,
116,103.839945947186,1.28823055540002,1,21/1/1969,Existing,30071.510000000002,http://www.nea.gov.sg/images/default-source/Hawker-Centres-Division/resize_1267874440744.jpg,HUP Standard Upgrading,Jalan Kukoh Blk 1 (Kukoh 21 Food Centre),I,4/10/2010,28737.57,Jalan Kukoh,161001,"Blk 1, Jalan Kukoh, Singapore 161001",8943084A1D332148,20210330151704,,,,,,,,
117,103.731579747132,1.34531247026793,347,17/10/1984,Existing,36383.57,http://www.nea.gov.sg/images/default-source/Hawker-Centres-Division/resize_1275537901886.jpg,HUP Standard Upgrading,Jurong East Ave 1 Blk 347 (Yuhua Market and Hawker Centre),I,31/12/2002,16677.58,Jurong East Ave 1,600347,"Blk 347, Jurong East Ave 1, Singapore 600347",6C864243CCBEA1C0,20210330151704,,,,,,,,
118,103.737781231485,1.34344213770991,254,30/4/1983,Existing,36176.73,http://www.nea.gov.sg/images/default-source/Hawker-Centres-Division/resize_1265167615307.jpg,HUP Reconfiguration,Jurong East Street 24 Blk 254 (Yuhua Village Market and Food Centre),I,5/7/2006,17367.73,Jurong East Street 24,600254,"Blk 254, Jurong East Street 24, Singapore 600254",037A6F1E0D6FBE79,20210330151704,,,,,,,,
119,103.697404254467,1.3412597060095,50,28/7/2017,Under Construction,35935.62,http://www.nea.gov.sg/images/default-source/Hawker-Centres-Division/jurong-west-hawker-centre.jpg,New Centre,Jurong West Hawker Centre,,,12874.19,Jurong West Street 61,648202,"Blk 50, Jurong West St 61, Singapore 648202",A85BCE9D8344CCD9,20210330151704,2987,23/9/2015,Jurong West Hawker Centre,15/10/2015,,,,
120,103.71844754363,1.34964224318434,505,16/1/1985,Existing,36862.4,http://www.nea.gov.sg/images/default-source/Hawker-Centres-Division/resize_1262155040710.jpg,HUP Standard Upgrading,Jurong West Street 52 Blk 505,I,2/1/2009,15216.130000000001,Jurong West Street 52,640505,"Blk 505, Jurong West Street 52, Singapore 640505",0AE38DCCD1264CB7,20210330151704,,,,,,,,
121,103.884130183315,1.30739616009942,17,1959,Existing,32190.8,http://www.nea.gov.sg/images/default-source/Hawker-Centres-Division/resize_1262155698415.jpg,HUP Standard Upgrading,Kallang Estate Fresh Market and Food Centre,I,31/10/2003,33654.86,Old Airport Road,397972,"17, Old Airport Road, Singapore 397972",2F0C253383E628A3,20210330151704,2629.19,,,,,,,
122,103.800696448529,1.43993283228134,676,8/5/2017,Existing (new),46846,http://www.nea.gov.sg/images/default-source/Hawker-Centres-Division/kampung-admiralty-hawker-centre.jpg,New Centre,Kampung Admiralty Hawker Centre,,,24369.66,Woodlands Drive 71,730676,"Blk 676, Woodlands Drive 71, Singapore 730676",8E56FA1F3FFB53FC,20210330151704,3440,17/10/2014,Kampung Admiralty,1/4/2014,,studio apartments/supermarket/shops/specialist centre/senior care centre/child care centre/senior activity centre,,
123,103.906338526157,1.30228513841822,84,23/8/1976,Existing,31625.71,http://www.nea.gov.sg/images/default-source/Hawker-Centres-Division/resize_1267875360164.jpg,Opted out of HUP,Marine Parade Central Blk 84 (84 Marine Parade Central Market and Food Centre),I,,36126.46,Marine Parade Central,440084,"Blk 84, Marine Parade Central, Singapore 440084",069C7A0A2A7BDE00,20210330151704,,,,,,,,
124,103.915761950557,1.30577514781108,50A,3/3/1975,Existing,32011.65,http://www.nea.gov.sg/images/default-source/Hawker-Centres-Division/resize_1262153165514.jpg,HUP Standard Upgrading,Marine Terrace Blk 50A (50A Marine Terrace),I,22/12/2008,37175.19,Marine Terrace,441050,"Blk 50A, Marine Terrace, Singapore 441050",6834B49032645709,20210330151704,,,,,,,,
